{
  "parentName": null,
  "total": 1116,
  "code": "500",
  "children": [
    {
      "parentName": "两江新区",
      "total": 1,
      "code": "500056",
      "children": [],
      "parentCode": "500",
      "level": 2,
      "latitude": 29.728855,
      "name": "两江新区",
      "id": 11111,
      "longitude": 106.641887
    },
    {
      "parentName": "重庆市",
      "total": 52,
      "code": "500101",
      "children": [
        {
          "parentName": "万州区",
          "total": 1,
          "code": "500101001",
          "children": [],
          "parentCode": "500101",
          "level": 3,
          "latitude": 30.808287,
          "name": "高笋塘街道",
          "id": 264,
          "longitude": 108.38015
        },
        {
          "parentName": "万州区",
          "total": 1,
          "code": "500101017",
          "children": [],
          "parentCode": "500101",
          "level": 3,
          "latitude": 30.811004,
          "name": "太白街道",
          "id": 258,
          "longitude": 108.345012
        },
        {
          "parentName": "万州区",
          "total": 1,
          "code": "500101018",
          "children": [],
          "parentCode": "500101",
          "level": 3,
          "latitude": 30.784799,
          "name": "牌楼街道",
          "id": 271,
          "longitude": 108.386349
        },
        {
          "parentName": "万州区",
          "total": 1,
          "code": "500101019",
          "children": [],
          "parentCode": "500101",
          "level": 3,
          "latitude": 30.746368,
          "name": "双河口街道",
          "id": 278,
          "longitude": 108.363068
        },
        {
          "parentName": "万州区",
          "total": 1,
          "code": "500101020",
          "children": [],
          "parentCode": "500101",
          "level": 3,
          "latitude": 30.73737,
          "name": "龙都街道",
          "id": 280,
          "longitude": 108.400054
        },
        {
          "parentName": "万州区",
          "total": 1,
          "code": "500101021",
          "children": [],
          "parentCode": "500101",
          "level": 3,
          "latitude": 30.842413,
          "name": "周家坝街道",
          "id": 245,
          "longitude": 108.366456
        },
        {
          "parentName": "万州区",
          "total": 1,
          "code": "500101022",
          "children": [],
          "parentCode": "500101",
          "level": 3,
          "latitude": 30.844522,
          "name": "沙河街道",
          "id": 244,
          "longitude": 108.343793
        },
        {
          "parentName": "万州区",
          "total": 1,
          "code": "500101023",
          "children": [],
          "parentCode": "500101",
          "level": 3,
          "latitude": 30.846496,
          "name": "钟鼓楼街道",
          "id": 239,
          "longitude": 108.418138
        },
        {
          "parentName": "万州区",
          "total": 1,
          "code": "500101024",
          "children": [],
          "parentCode": "500101",
          "level": 3,
          "latitude": 30.751477,
          "name": "百安坝街道",
          "id": 285,
          "longitude": 108.446261
        },
        {
          "parentName": "万州区",
          "total": 1,
          "code": "500101025",
          "children": [],
          "parentCode": "500101",
          "level": 3,
          "latitude": 30.792189,
          "name": "五桥街道",
          "id": 259,
          "longitude": 108.468712
        },
        {
          "parentName": "万州区",
          "total": 1,
          "code": "500101026",
          "children": [],
          "parentCode": "500101",
          "level": 3,
          "latitude": 30.806605,
          "name": "陈家坝街道",
          "id": 251,
          "longitude": 108.426841
        },
        {
          "parentName": "万州区",
          "total": 1,
          "code": "500101109",
          "children": [],
          "parentCode": "500101",
          "level": 3,
          "latitude": 30.938514,
          "name": "小周镇",
          "id": 216,
          "longitude": 108.518804
        },
        {
          "parentName": "万州区",
          "total": 1,
          "code": "500101110",
          "children": [],
          "parentCode": "500101",
          "level": 3,
          "latitude": 30.900414,
          "name": "大周镇",
          "id": 223,
          "longitude": 108.490976
        },
        {
          "parentName": "万州区",
          "total": 1,
          "code": "500101123",
          "children": [],
          "parentCode": "500101",
          "level": 3,
          "latitude": 30.482943,
          "name": "新乡镇",
          "id": 357,
          "longitude": 108.292624
        },
        {
          "parentName": "万州区",
          "total": 1,
          "code": "500101132",
          "children": [],
          "parentCode": "500101",
          "level": 3,
          "latitude": 30.738396,
          "name": "孙家镇",
          "id": 282,
          "longitude": 108.013801
        },
        {
          "parentName": "万州区",
          "total": 1,
          "code": "500101134",
          "children": [],
          "parentCode": "500101",
          "level": 3,
          "latitude": 30.704658,
          "name": "高峰镇",
          "id": 287,
          "longitude": 108.340543
        },
        {
          "parentName": "万州区",
          "total": 1,
          "code": "500101135",
          "children": [],
          "parentCode": "500101",
          "level": 3,
          "latitude": 30.610177,
          "name": "龙沙镇",
          "id": 319,
          "longitude": 108.235564
        },
        {
          "parentName": "万州区",
          "total": 1,
          "code": "500101136",
          "children": [],
          "parentCode": "500101",
          "level": 3,
          "latitude": 30.656721,
          "name": "响水镇",
          "id": 303,
          "longitude": 108.166638
        },
        {
          "parentName": "万州区",
          "total": 1,
          "code": "500101137",
          "children": [],
          "parentCode": "500101",
          "level": 3,
          "latitude": 30.527393,
          "name": "武陵镇",
          "id": 339,
          "longitude": 108.227083
        },
        {
          "parentName": "万州区",
          "total": 1,
          "code": "500101138",
          "children": [],
          "parentCode": "500101",
          "level": 3,
          "latitude": 30.586977,
          "name": "瀼渡镇",
          "id": 327,
          "longitude": 108.294028
        },
        {
          "parentName": "万州区",
          "total": 1,
          "code": "500101139",
          "children": [],
          "parentCode": "500101",
          "level": 3,
          "latitude": 30.673507,
          "name": "甘宁镇",
          "id": 295,
          "longitude": 108.2738
        },
        {
          "parentName": "万州区",
          "total": 1,
          "code": "500101140",
          "children": [],
          "parentCode": "500101",
          "level": 3,
          "latitude": 30.895376,
          "name": "天城镇",
          "id": 224,
          "longitude": 108.366309
        },
        {
          "parentName": "万州区",
          "total": 1,
          "code": "500101141",
          "children": [],
          "parentCode": "500101",
          "level": 3,
          "latitude": 30.921414,
          "name": "熊家镇",
          "id": 209,
          "longitude": 108.45828
        },
        {
          "parentName": "万州区",
          "total": 1,
          "code": "500101142",
          "children": [],
          "parentCode": "500101",
          "level": 3,
          "latitude": 30.833074,
          "name": "高梁镇",
          "id": 232,
          "longitude": 108.279209
        },
        {
          "parentName": "万州区",
          "total": 1,
          "code": "500101143",
          "children": [],
          "parentCode": "500101",
          "level": 3,
          "latitude": 30.803675,
          "name": "李河镇",
          "id": 247,
          "longitude": 108.215125
        },
        {
          "parentName": "万州区",
          "total": 1,
          "code": "500101144",
          "children": [],
          "parentCode": "500101",
          "level": 3,
          "latitude": 30.688802,
          "name": "分水镇",
          "id": 266,
          "longitude": 108.107771
        },
        {
          "parentName": "万州区",
          "total": 1,
          "code": "500101145",
          "children": [],
          "parentCode": "500101",
          "level": 3,
          "latitude": 30.795396,
          "name": "余家镇",
          "id": 246,
          "longitude": 107.958561
        },
        {
          "parentName": "万州区",
          "total": 1,
          "code": "500101146",
          "children": [],
          "parentCode": "500101",
          "level": 3,
          "latitude": 30.813391,
          "name": "后山镇",
          "id": 248,
          "longitude": 108.079796
        },
        {
          "parentName": "万州区",
          "total": 1,
          "code": "500101147",
          "children": [],
          "parentCode": "500101",
          "level": 3,
          "latitude": 30.868659,
          "name": "弹子镇",
          "id": 230,
          "longitude": 108.009741
        },
        {
          "parentName": "万州区",
          "total": 1,
          "code": "500101148",
          "children": [],
          "parentCode": "500101",
          "level": 3,
          "latitude": 30.759608,
          "name": "长岭镇",
          "id": 255,
          "longitude": 108.525324
        },
        {
          "parentName": "万州区",
          "total": 1,
          "code": "500101149",
          "children": [],
          "parentCode": "500101",
          "level": 3,
          "latitude": 30.658692,
          "name": "新田镇",
          "id": 288,
          "longitude": 108.425098
        },
        {
          "parentName": "万州区",
          "total": 1,
          "code": "500101150",
          "children": [],
          "parentCode": "500101",
          "level": 3,
          "latitude": 30.834092,
          "name": "白羊镇",
          "id": 236,
          "longitude": 108.613534
        },
        {
          "parentName": "万州区",
          "total": 1,
          "code": "500101151",
          "children": [],
          "parentCode": "500101",
          "level": 3,
          "latitude": 30.645109,
          "name": "龙驹镇",
          "id": 296,
          "longitude": 108.649164
        },
        {
          "parentName": "万州区",
          "total": 1,
          "code": "500101152",
          "children": [],
          "parentCode": "500101",
          "level": 3,
          "latitude": 30.56574,
          "name": "走马镇",
          "id": 323,
          "longitude": 108.478964
        },
        {
          "parentName": "万州区",
          "total": 1,
          "code": "500101153",
          "children": [],
          "parentCode": "500101",
          "level": 3,
          "latitude": 30.527528,
          "name": "罗田镇",
          "id": 344,
          "longitude": 108.571731
        },
        {
          "parentName": "万州区",
          "total": 1,
          "code": "500101154",
          "children": [],
          "parentCode": "500101",
          "level": 3,
          "latitude": 30.856574,
          "name": "太龙镇",
          "id": 229,
          "longitude": 108.525658
        },
        {
          "parentName": "万州区",
          "total": 1,
          "code": "500101155",
          "children": [],
          "parentCode": "500101",
          "level": 3,
          "latitude": 30.731632,
          "name": "长滩镇",
          "id": 284,
          "longitude": 108.635973
        },
        {
          "parentName": "万州区",
          "total": 1,
          "code": "500101156",
          "children": [],
          "parentCode": "500101",
          "level": 3,
          "latitude": 30.791485,
          "name": "太安镇",
          "id": 253,
          "longitude": 108.680551
        },
        {
          "parentName": "万州区",
          "total": 1,
          "code": "500101157",
          "children": [],
          "parentCode": "500101",
          "level": 3,
          "latitude": 30.613299,
          "name": "白土镇",
          "id": 322,
          "longitude": 108.805006
        },
        {
          "parentName": "万州区",
          "total": 1,
          "code": "500101158",
          "children": [],
          "parentCode": "500101",
          "level": 3,
          "latitude": 30.58513,
          "name": "郭村镇",
          "id": 328,
          "longitude": 108.153033
        },
        {
          "parentName": "万州区",
          "total": 1,
          "code": "500101201",
          "children": [],
          "parentCode": "500101",
          "level": 3,
          "latitude": 30.741514,
          "name": "柱山乡",
          "id": 276,
          "longitude": 108.256427
        },
        {
          "parentName": "万州区",
          "total": 1,
          "code": "500101212",
          "children": [],
          "parentCode": "500101",
          "level": 3,
          "latitude": 30.967088,
          "name": "铁峰乡",
          "id": 206,
          "longitude": 108.398225
        },
        {
          "parentName": "万州区",
          "total": 1,
          "code": "500101225",
          "children": [],
          "parentCode": "500101",
          "level": 3,
          "latitude": 30.592091,
          "name": "溪口乡",
          "id": 326,
          "longitude": 108.351677
        },
        {
          "parentName": "万州区",
          "total": 1,
          "code": "500101226",
          "children": [],
          "parentCode": "500101",
          "level": 3,
          "latitude": 30.433659,
          "name": "长坪乡",
          "id": 370,
          "longitude": 108.269473
        },
        {
          "parentName": "万州区",
          "total": 1,
          "code": "500101227",
          "children": [],
          "parentCode": "500101",
          "level": 3,
          "latitude": 30.532851,
          "name": "燕山乡",
          "id": 342,
          "longitude": 108.327642
        },
        {
          "parentName": "万州区",
          "total": 1,
          "code": "500101234",
          "children": [],
          "parentCode": "500101",
          "level": 3,
          "latitude": 30.66786,
          "name": "梨树乡",
          "id": 310,
          "longitude": 108.769605
        },
        {
          "parentName": "万州区",
          "total": 1,
          "code": "500101237",
          "children": [],
          "parentCode": "500101",
          "level": 3,
          "latitude": 30.555955,
          "name": "普子乡",
          "id": 333,
          "longitude": 108.839284
        },
        {
          "parentName": "万州区",
          "total": 1,
          "code": "500101238",
          "children": [],
          "parentCode": "500101",
          "level": 3,
          "latitude": 30.659638,
          "name": "地宝土家族乡",
          "id": 308,
          "longitude": 108.852385
        },
        {
          "parentName": "万州区",
          "total": 1,
          "code": "500101239",
          "children": [],
          "parentCode": "500101",
          "level": 3,
          "latitude": 30.556311,
          "name": "恒合土家族乡",
          "id": 331,
          "longitude": 108.741456
        },
        {
          "parentName": "万州区",
          "total": 1,
          "code": "500101244",
          "children": [],
          "parentCode": "500101",
          "level": 3,
          "latitude": 30.902319,
          "name": "黄柏乡",
          "id": 227,
          "longitude": 108.59219
        },
        {
          "parentName": "万州区",
          "total": 1,
          "code": "500101245",
          "children": [],
          "parentCode": "500101",
          "level": 3,
          "latitude": 30.771802,
          "name": "九池乡",
          "id": 270,
          "longitude": 108.334634
        },
        {
          "parentName": "万州区",
          "total": 1,
          "code": "500101247",
          "children": [],
          "parentCode": "500101",
          "level": 3,
          "latitude": 30.661974,
          "name": "茨竹乡",
          "id": 305,
          "longitude": 108.511691
        }
      ],
      "parentCode": "500",
      "level": 2,
      "latitude": 30.812595,
      "name": "万州区",
      "id": 2,
      "longitude": 108.415519
    },
    {
      "parentName": "重庆市",
      "total": 27,
      "code": "500102",
      "children": [
        {
          "parentName": "涪陵区",
          "total": 1,
          "code": "500102006",
          "children": [],
          "parentCode": "500102",
          "level": 3,
          "latitude": 29.69271,
          "name": "敦仁街道",
          "id": 735,
          "longitude": 107.391859
        },
        {
          "parentName": "涪陵区",
          "total": 1,
          "code": "500102006",
          "children": [],
          "parentCode": "500102",
          "level": 3,
          "latitude": 29.69271,
          "name": "敦仁街道",
          "id": 725,
          "longitude": 107.391859
        },
        {
          "parentName": "涪陵区",
          "total": 1,
          "code": "500102007",
          "children": [],
          "parentCode": "500102",
          "level": 3,
          "latitude": 29.720048,
          "name": "崇义街道",
          "id": 714,
          "longitude": 107.357813
        },
        {
          "parentName": "涪陵区",
          "total": 1,
          "code": "500102008",
          "children": [],
          "parentCode": "500102",
          "level": 3,
          "latitude": 29.600756,
          "name": "荔枝街道",
          "id": 727,
          "longitude": 107.368133
        },
        {
          "parentName": "涪陵区",
          "total": 1,
          "code": "500102009",
          "children": [],
          "parentCode": "500102",
          "level": 3,
          "latitude": 29.774542,
          "name": "江北街道",
          "id": 655,
          "longitude": 107.392368
        },
        {
          "parentName": "涪陵区",
          "total": 1,
          "code": "500102010",
          "children": [],
          "parentCode": "500102",
          "level": 3,
          "latitude": 29.678461,
          "name": "江东街道",
          "id": 686,
          "longitude": 107.437304
        },
        {
          "parentName": "涪陵区",
          "total": 1,
          "code": "500102011",
          "children": [],
          "parentCode": "500102",
          "level": 3,
          "latitude": 29.783141,
          "name": "李渡街道",
          "id": 641,
          "longitude": 107.264299
        },
        {
          "parentName": "涪陵区",
          "total": 1,
          "code": "500102012",
          "children": [],
          "parentCode": "500102",
          "level": 3,
          "latitude": 29.678189,
          "name": "龙桥街道",
          "id": 710,
          "longitude": 107.30301
        },
        {
          "parentName": "涪陵区",
          "total": 1,
          "code": "500102013",
          "children": [],
          "parentCode": "500102",
          "level": 3,
          "latitude": 29.576407,
          "name": "白涛街道",
          "id": 766,
          "longitude": 107.507033
        },
        {
          "parentName": "涪陵区",
          "total": 1,
          "code": "500102103",
          "children": [],
          "parentCode": "500102",
          "level": 3,
          "latitude": 29.851093,
          "name": "南沱镇",
          "id": 617,
          "longitude": 107.516854
        },
        {
          "parentName": "涪陵区",
          "total": 1,
          "code": "500102107",
          "children": [],
          "parentCode": "500102",
          "level": 3,
          "latitude": 29.513955,
          "name": "青羊镇",
          "id": 888,
          "longitude": 107.182634
        },
        {
          "parentName": "涪陵区",
          "total": 1,
          "code": "500102118",
          "children": [],
          "parentCode": "500102",
          "level": 3,
          "latitude": 29.865707,
          "name": "百胜镇",
          "id": 589,
          "longitude": 107.390037
        },
        {
          "parentName": "涪陵区",
          "total": 1,
          "code": "500102119",
          "children": [],
          "parentCode": "500102",
          "level": 3,
          "latitude": 29.918921,
          "name": "珍溪镇",
          "id": 570,
          "longitude": 107.508479
        },
        {
          "parentName": "涪陵区",
          "total": 1,
          "code": "500102120",
          "children": [],
          "parentCode": "500102",
          "level": 3,
          "latitude": 29.794222,
          "name": "清溪镇",
          "id": 650,
          "longitude": 107.505104
        },
        {
          "parentName": "涪陵区",
          "total": 1,
          "code": "500102121",
          "children": [],
          "parentCode": "500102",
          "level": 3,
          "latitude": 29.690875,
          "name": "焦石镇",
          "id": 697,
          "longitude": 107.56709
        },
        {
          "parentName": "涪陵区",
          "total": 1,
          "code": "500102122",
          "children": [],
          "parentCode": "500102",
          "level": 3,
          "latitude": 29.565119,
          "name": "马武镇",
          "id": 772,
          "longitude": 107.266533
        },
        {
          "parentName": "涪陵区",
          "total": 1,
          "code": "500102123",
          "children": [],
          "parentCode": "500102",
          "level": 3,
          "latitude": 29.432279,
          "name": "龙潭镇",
          "id": 984,
          "longitude": 107.093025
        },
        {
          "parentName": "涪陵区",
          "total": 1,
          "code": "500102124",
          "children": [],
          "parentCode": "500102",
          "level": 3,
          "latitude": 29.624415,
          "name": "蔺市镇",
          "id": 736,
          "longitude": 107.188526
        },
        {
          "parentName": "涪陵区",
          "total": 1,
          "code": "500102125",
          "children": [],
          "parentCode": "500102",
          "level": 3,
          "latitude": 29.628794,
          "name": "新妙镇",
          "id": 729,
          "longitude": 107.050564
        },
        {
          "parentName": "涪陵区",
          "total": 1,
          "code": "500102126",
          "children": [],
          "parentCode": "500102",
          "level": 3,
          "latitude": 29.70508,
          "name": "石沱镇",
          "id": 695,
          "longitude": 107.083276
        },
        {
          "parentName": "涪陵区",
          "total": 1,
          "code": "500102127",
          "children": [],
          "parentCode": "500102",
          "level": 3,
          "latitude": 29.737373,
          "name": "义和镇",
          "id": 675,
          "longitude": 107.169317
        },
        {
          "parentName": "涪陵区",
          "total": 1,
          "code": "500102204",
          "children": [],
          "parentCode": "500102",
          "level": 3,
          "latitude": 29.765879,
          "name": "罗云乡",
          "id": 665,
          "longitude": 107.563861
        },
        {
          "parentName": "涪陵区",
          "total": 1,
          "code": "500102206",
          "children": [],
          "parentCode": "500102",
          "level": 3,
          "latitude": 29.608939,
          "name": "大木乡",
          "id": 744,
          "longitude": 107.649104
        },
        {
          "parentName": "涪陵区",
          "total": 1,
          "code": "500102208",
          "children": [],
          "parentCode": "500102",
          "level": 3,
          "latitude": 29.499335,
          "name": "武陵山乡",
          "id": 879,
          "longitude": 107.548267
        },
        {
          "parentName": "涪陵区",
          "total": 1,
          "code": "500102216",
          "children": [],
          "parentCode": "500102",
          "level": 3,
          "latitude": 29.527096,
          "name": "大顺乡",
          "id": 805,
          "longitude": 107.045178
        },
        {
          "parentName": "涪陵区",
          "total": 1,
          "code": "500102217",
          "children": [],
          "parentCode": "500102",
          "level": 3,
          "latitude": 29.549458,
          "name": "增福乡",
          "id": 804,
          "longitude": 106.983066
        },
        {
          "parentName": "涪陵区",
          "total": 1,
          "code": "500102222",
          "children": [],
          "parentCode": "500102",
          "level": 3,
          "latitude": 29.446392,
          "name": "同乐乡",
          "id": 961,
          "longitude": 107.202769
        }
      ],
      "parentCode": "500",
      "level": 2,
      "latitude": 29.706428,
      "name": "涪陵区",
      "id": 3,
      "longitude": 107.39448
    },
    {
      "parentName": "重庆市",
      "total": 12,
      "code": "500103",
      "children": [
        {
          "parentName": "渝中区",
          "total": 1,
          "code": "500103001",
          "children": [],
          "parentCode": "500103",
          "level": 3,
          "latitude": 29.558283,
          "name": "七星岗街道",
          "id": 880,
          "longitude": 106.560913
        },
        {
          "parentName": "渝中区",
          "total": 1,
          "code": "500103003",
          "children": [],
          "parentCode": "500103",
          "level": 3,
          "latitude": 29.560448,
          "name": "解放碑街道",
          "id": 877,
          "longitude": 106.571295
        },
        {
          "parentName": "渝中区",
          "total": 1,
          "code": "500103004",
          "children": [],
          "parentCode": "500103",
          "level": 3,
          "latitude": 29.552681,
          "name": "两路口街道",
          "id": 887,
          "longitude": 106.538858
        },
        {
          "parentName": "渝中区",
          "total": 1,
          "code": "500103005",
          "children": [],
          "parentCode": "500103",
          "level": 3,
          "latitude": 29.562942,
          "name": "上清寺街道",
          "id": 868,
          "longitude": 106.541609
        },
        {
          "parentName": "渝中区",
          "total": 1,
          "code": "500103007",
          "children": [],
          "parentCode": "500103",
          "level": 3,
          "latitude": 29.546345,
          "name": "菜园坝街道",
          "id": 896,
          "longitude": 106.544095
        },
        {
          "parentName": "渝中区",
          "total": 1,
          "code": "500103008",
          "children": [],
          "parentCode": "500103",
          "level": 3,
          "latitude": 29.551294,
          "name": "南纪门街道",
          "id": 894,
          "longitude": 106.570114
        },
        {
          "parentName": "渝中区",
          "total": 1,
          "code": "500103009",
          "children": [],
          "parentCode": "500103",
          "level": 3,
          "latitude": 29.557572,
          "name": "望龙门街道",
          "id": 882,
          "longitude": 106.581497
        },
        {
          "parentName": "渝中区",
          "total": 1,
          "code": "500103010",
          "children": [],
          "parentCode": "500103",
          "level": 3,
          "latitude": 29.56683,
          "name": "朝天门街道",
          "id": 859,
          "longitude": 106.582091
        },
        {
          "parentName": "渝中区",
          "total": 1,
          "code": "500103011",
          "children": [],
          "parentCode": "500103",
          "level": 3,
          "latitude": 29.565302,
          "name": "大溪沟街道",
          "id": 869,
          "longitude": 106.555904
        },
        {
          "parentName": "渝中区",
          "total": 1,
          "code": "500103012",
          "children": [],
          "parentCode": "500103",
          "level": 3,
          "latitude": 29.542123,
          "name": "大坪街道",
          "id": 906,
          "longitude": 106.516806
        },
        {
          "parentName": "渝中区",
          "total": 1,
          "code": "500103013",
          "children": [],
          "parentCode": "500103",
          "level": 3,
          "latitude": 29.553932,
          "name": "化龙桥街道",
          "id": 890,
          "longitude": 106.509081
        },
        {
          "parentName": "渝中区",
          "total": 1,
          "code": "500103014",
          "children": [],
          "parentCode": "500103",
          "level": 3,
          "latitude": 29.542855,
          "name": "石油路街道",
          "id": 899,
          "longitude": 106.500132
        }
      ],
      "parentCode": "500",
      "level": 2,
      "latitude": 30.201406,
      "name": "渝中区",
      "id": 4,
      "longitude": 107.797473
    },
    {
      "parentName": "重庆市",
      "total": 32,
      "code": "500104",
      "children": [
        {
          "parentName": "大渡口区",
          "total": 1,
          "code": "500104001",
          "children": [],
          "parentCode": "500104",
          "level": 3,
          "latitude": 29.482116,
          "name": "新山村街道",
          "id": 1010,
          "longitude": 106.488276
        },
        {
          "parentName": "大渡口区",
          "total": 1,
          "code": "500104002",
          "children": [],
          "parentCode": "500104",
          "level": 3,
          "latitude": 29.48946,
          "name": "跃进村街道",
          "id": 1000,
          "longitude": 106.499954
        },
        {
          "parentName": "大渡口区",
          "total": 1,
          "code": "500104002",
          "children": [],
          "parentCode": "500104",
          "level": 3,
          "latitude": 29.48946,
          "name": "跃进村街道",
          "id": 1003,
          "longitude": 106.499954
        },
        {
          "parentName": "大渡口区",
          "total": 1,
          "code": "500104003",
          "children": [],
          "parentCode": "500104",
          "level": 3,
          "latitude": 29.445648,
          "name": "九宫庙街道",
          "id": 1073,
          "longitude": 106.4769
        },
        {
          "parentName": "大渡口区",
          "total": 1,
          "code": "500104003",
          "children": [],
          "parentCode": "500104",
          "level": 3,
          "latitude": 29.445648,
          "name": "九宫庙街道",
          "id": 1074,
          "longitude": 106.4769
        },
        {
          "parentName": "大渡口区",
          "total": 1,
          "code": "500104003",
          "children": [],
          "parentCode": "500104",
          "level": 3,
          "latitude": 29.445648,
          "name": "九宫庙街道",
          "id": 1075,
          "longitude": 106.4769
        },
        {
          "parentName": "大渡口区",
          "total": 1,
          "code": "500104003",
          "children": [],
          "parentCode": "500104",
          "level": 3,
          "latitude": 29.445648,
          "name": "九宫庙街道",
          "id": 1030,
          "longitude": 106.4769
        },
        {
          "parentName": "大渡口区",
          "total": 1,
          "code": "500104003",
          "children": [],
          "parentCode": "500104",
          "level": 3,
          "latitude": 29.445648,
          "name": "九宫庙街道",
          "id": 1072,
          "longitude": 106.4769
        },
        {
          "parentName": "大渡口区",
          "total": 1,
          "code": "500104003",
          "children": [],
          "parentCode": "500104",
          "level": 3,
          "latitude": 29.445648,
          "name": "九宫庙街道",
          "id": 1080,
          "longitude": 106.4769
        },
        {
          "parentName": "大渡口区",
          "total": 1,
          "code": "500104004",
          "children": [],
          "parentCode": "500104",
          "level": 3,
          "latitude": 29.399653,
          "name": "茄子溪街道",
          "id": 1097,
          "longitude": 106.520283
        },
        {
          "parentName": "大渡口区",
          "total": 1,
          "code": "500104004",
          "children": [],
          "parentCode": "500104",
          "level": 3,
          "latitude": 29.399653,
          "name": "茄子溪街道",
          "id": 1112,
          "longitude": 106.520283
        },
        {
          "parentName": "大渡口区",
          "total": 1,
          "code": "500104004",
          "children": [],
          "parentCode": "500104",
          "level": 3,
          "latitude": 29.399653,
          "name": "茄子溪街道",
          "id": 1114,
          "longitude": 106.520283
        },
        {
          "parentName": "大渡口区",
          "total": 1,
          "code": "500104004",
          "children": [],
          "parentCode": "500104",
          "level": 3,
          "latitude": 29.399653,
          "name": "茄子溪街道",
          "id": 1135,
          "longitude": 106.520283
        },
        {
          "parentName": "大渡口区",
          "total": 1,
          "code": "500104004",
          "children": [],
          "parentCode": "500104",
          "level": 3,
          "latitude": 29.399653,
          "name": "茄子溪街道",
          "id": 1104,
          "longitude": 106.520283
        },
        {
          "parentName": "大渡口区",
          "total": 1,
          "code": "500104004",
          "children": [],
          "parentCode": "500104",
          "level": 3,
          "latitude": 29.399653,
          "name": "茄子溪街道",
          "id": 1122,
          "longitude": 106.520283
        },
        {
          "parentName": "大渡口区",
          "total": 1,
          "code": "500104004",
          "children": [],
          "parentCode": "500104",
          "level": 3,
          "latitude": 29.399653,
          "name": "茄子溪街道",
          "id": 1138,
          "longitude": 106.520283
        },
        {
          "parentName": "大渡口区",
          "total": 1,
          "code": "500104004",
          "children": [],
          "parentCode": "500104",
          "level": 3,
          "latitude": 29.399653,
          "name": "茄子溪街道",
          "id": 1125,
          "longitude": 106.520283
        },
        {
          "parentName": "大渡口区",
          "total": 1,
          "code": "500104004",
          "children": [],
          "parentCode": "500104",
          "level": 3,
          "latitude": 29.399653,
          "name": "茄子溪街道",
          "id": 1129,
          "longitude": 106.520283
        },
        {
          "parentName": "大渡口区",
          "total": 1,
          "code": "500104004",
          "children": [],
          "parentCode": "500104",
          "level": 3,
          "latitude": 29.399653,
          "name": "茄子溪街道",
          "id": 1089,
          "longitude": 106.520283
        },
        {
          "parentName": "大渡口区",
          "total": 1,
          "code": "500104004",
          "children": [],
          "parentCode": "500104",
          "level": 3,
          "latitude": 29.399653,
          "name": "茄子溪街道",
          "id": 1130,
          "longitude": 106.520283
        },
        {
          "parentName": "大渡口区",
          "total": 1,
          "code": "500104004",
          "children": [],
          "parentCode": "500104",
          "level": 3,
          "latitude": 29.399653,
          "name": "茄子溪街道",
          "id": 1124,
          "longitude": 106.520283
        },
        {
          "parentName": "大渡口区",
          "total": 1,
          "code": "500104004",
          "children": [],
          "parentCode": "500104",
          "level": 3,
          "latitude": 29.399653,
          "name": "茄子溪街道",
          "id": 1101,
          "longitude": 106.520283
        },
        {
          "parentName": "大渡口区",
          "total": 1,
          "code": "500104004",
          "children": [],
          "parentCode": "500104",
          "level": 3,
          "latitude": 29.399653,
          "name": "茄子溪街道",
          "id": 1121,
          "longitude": 106.520283
        },
        {
          "parentName": "大渡口区",
          "total": 1,
          "code": "500104005",
          "children": [],
          "parentCode": "500104",
          "level": 3,
          "latitude": 29.434014,
          "name": "春晖路街道",
          "id": 1094,
          "longitude": 106.486421
        },
        {
          "parentName": "大渡口区",
          "total": 1,
          "code": "500104005",
          "children": [],
          "parentCode": "500104",
          "level": 3,
          "latitude": 29.434014,
          "name": "春晖路街道",
          "id": 1012,
          "longitude": 106.486421
        },
        {
          "parentName": "大渡口区",
          "total": 1,
          "code": "500104005",
          "children": [],
          "parentCode": "500104",
          "level": 3,
          "latitude": 29.434014,
          "name": "春晖路街道",
          "id": 1054,
          "longitude": 106.486421
        },
        {
          "parentName": "大渡口区",
          "total": 1,
          "code": "500104101",
          "children": [],
          "parentCode": "500104",
          "level": 3,
          "latitude": 29.432443,
          "name": "八桥镇",
          "id": 1052,
          "longitude": 106.491029
        },
        {
          "parentName": "大渡口区",
          "total": 1,
          "code": "500104101",
          "children": [],
          "parentCode": "500104",
          "level": 3,
          "latitude": 29.432443,
          "name": "八桥镇",
          "id": 1038,
          "longitude": 106.491029
        },
        {
          "parentName": "大渡口区",
          "total": 1,
          "code": "500104101",
          "children": [],
          "parentCode": "500104",
          "level": 3,
          "latitude": 29.432443,
          "name": "八桥镇",
          "id": 1100,
          "longitude": 106.491029
        },
        {
          "parentName": "大渡口区",
          "total": 1,
          "code": "500104101",
          "children": [],
          "parentCode": "500104",
          "level": 3,
          "latitude": 29.432443,
          "name": "八桥镇",
          "id": 995,
          "longitude": 106.491029
        },
        {
          "parentName": "大渡口区",
          "total": 1,
          "code": "500104102",
          "children": [],
          "parentCode": "500104",
          "level": 3,
          "latitude": 29.414114,
          "name": "建胜镇",
          "id": 1087,
          "longitude": 106.494587
        },
        {
          "parentName": "大渡口区",
          "total": 1,
          "code": "500104103",
          "children": [],
          "parentCode": "500104",
          "level": 3,
          "latitude": 29.394127,
          "name": "跳磴镇",
          "id": 1085,
          "longitude": 106.422895
        }
      ],
      "parentCode": "500",
      "level": 2,
      "latitude": 29.490309,
      "name": "大渡口区",
      "id": 5,
      "longitude": 106.488845
    },
    {
      "parentName": "重庆市",
      "total": 12,
      "code": "500105",
      "children": [
        {
          "parentName": "江北区",
          "total": 1,
          "code": "500105001",
          "children": [],
          "parentCode": "500105",
          "level": 3,
          "latitude": 29.568068,
          "name": "华新街街道",
          "id": 857,
          "longitude": 106.533232
        },
        {
          "parentName": "江北区",
          "total": 1,
          "code": "500105002",
          "children": [],
          "parentCode": "500105",
          "level": 3,
          "latitude": 29.57611,
          "name": "江北城街道",
          "id": 843,
          "longitude": 106.572231
        },
        {
          "parentName": "江北区",
          "total": 1,
          "code": "500105003",
          "children": [],
          "parentCode": "500105",
          "level": 3,
          "latitude": 29.59402,
          "name": "石马河街道",
          "id": 807,
          "longitude": 106.469467
        },
        {
          "parentName": "江北区",
          "total": 1,
          "code": "500105004",
          "children": [],
          "parentCode": "500105",
          "level": 3,
          "latitude": 29.569082,
          "name": "大石坝街道",
          "id": 849,
          "longitude": 106.489342
        },
        {
          "parentName": "江北区",
          "total": 1,
          "code": "500105005",
          "children": [],
          "parentCode": "500105",
          "level": 3,
          "latitude": 29.622706,
          "name": "寸滩街道",
          "id": 777,
          "longitude": 106.595836
        },
        {
          "parentName": "江北区",
          "total": 1,
          "code": "500105006",
          "children": [],
          "parentCode": "500105",
          "level": 3,
          "latitude": 29.572914,
          "name": "观音桥街道",
          "id": 841,
          "longitude": 106.519359
        },
        {
          "parentName": "江北区",
          "total": 1,
          "code": "500105007",
          "children": [],
          "parentCode": "500105",
          "level": 3,
          "latitude": 29.583217,
          "name": "五里店街道",
          "id": 833,
          "longitude": 106.557913
        },
        {
          "parentName": "江北区",
          "total": 1,
          "code": "500105008",
          "children": [],
          "parentCode": "500105",
          "level": 3,
          "latitude": 29.594359,
          "name": "郭家沱街道",
          "id": 787,
          "longitude": 106.702376
        },
        {
          "parentName": "江北区",
          "total": 1,
          "code": "500105009",
          "children": [],
          "parentCode": "500105",
          "level": 3,
          "latitude": 29.612111,
          "name": "铁山坪街道",
          "id": 782,
          "longitude": 106.660268
        },
        {
          "parentName": "江北区",
          "total": 1,
          "code": "500105100",
          "children": [],
          "parentCode": "500105",
          "level": 3,
          "latitude": null,
          "name": "鱼嘴镇人民政府",
          "id": 754,
          "longitude": null
        },
        {
          "parentName": "江北区",
          "total": 1,
          "code": "500105101",
          "children": [],
          "parentCode": "500105",
          "level": 3,
          "latitude": null,
          "name": "复盛镇人民政府",
          "id": 747,
          "longitude": null
        },
        {
          "parentName": "江北区",
          "total": 1,
          "code": "500105102",
          "children": [],
          "parentCode": "500105",
          "level": 3,
          "latitude": null,
          "name": "五宝镇人民政府",
          "id": 763,
          "longitude": null
        }
      ],
      "parentCode": "500",
      "level": 2,
      "latitude": 29.61348,
      "name": "江北区",
      "id": 6,
      "longitude": 106.65787
    },
    {
      "parentName": "重庆市",
      "total": 57,
      "code": "500106",
      "children": [
        {
          "parentName": "沙坪坝区",
          "total": 1,
          "code": "500106001",
          "children": [],
          "parentCode": "500106",
          "level": 3,
          "latitude": 29.546195,
          "name": "小龙坎街道",
          "id": 892,
          "longitude": 106.464564
        },
        {
          "parentName": "沙坪坝区",
          "total": 1,
          "code": "500106001",
          "children": [],
          "parentCode": "500106",
          "level": 3,
          "latitude": 29.546195,
          "name": "小龙坎街道",
          "id": 912,
          "longitude": 106.464564
        },
        {
          "parentName": "沙坪坝区",
          "total": 1,
          "code": "500106002",
          "children": [],
          "parentCode": "500106",
          "level": 3,
          "latitude": 29.570141,
          "name": "沙坪坝街道",
          "id": 856,
          "longitude": 106.461345
        },
        {
          "parentName": "沙坪坝区",
          "total": 1,
          "code": "500106003",
          "children": [],
          "parentCode": "500106",
          "level": 3,
          "latitude": 29.56245,
          "name": "渝碚路街道",
          "id": 862,
          "longitude": 106.452612
        },
        {
          "parentName": "沙坪坝区",
          "total": 1,
          "code": "500106004",
          "children": [],
          "parentCode": "500106",
          "level": 3,
          "latitude": 29.580553,
          "name": "磁器口街道",
          "id": 845,
          "longitude": 106.44921
        },
        {
          "parentName": "沙坪坝区",
          "total": 1,
          "code": "500106005",
          "children": [],
          "parentCode": "500106",
          "level": 3,
          "latitude": 29.574993,
          "name": "童家桥街道",
          "id": 842,
          "longitude": 106.435553
        },
        {
          "parentName": "沙坪坝区",
          "total": 1,
          "code": "500106006",
          "children": [],
          "parentCode": "500106",
          "level": 3,
          "latitude": 29.587722,
          "name": "石井坡街道",
          "id": 826,
          "longitude": 106.446836
        },
        {
          "parentName": "沙坪坝区",
          "total": 1,
          "code": "500106006",
          "children": [],
          "parentCode": "500106",
          "level": 3,
          "latitude": 29.587722,
          "name": "石井坡街道",
          "id": 799,
          "longitude": 106.446836
        },
        {
          "parentName": "沙坪坝区",
          "total": 1,
          "code": "500106006",
          "children": [],
          "parentCode": "500106",
          "level": 3,
          "latitude": 29.587722,
          "name": "石井坡街道",
          "id": 811,
          "longitude": 106.446836
        },
        {
          "parentName": "沙坪坝区",
          "total": 1,
          "code": "500106007",
          "children": [],
          "parentCode": "500106",
          "level": 3,
          "latitude": 29.608549,
          "name": "詹家溪街道",
          "id": 800,
          "longitude": 106.435309
        },
        {
          "parentName": "沙坪坝区",
          "total": 1,
          "code": "500106007",
          "children": [],
          "parentCode": "500106",
          "level": 3,
          "latitude": 29.608549,
          "name": "詹家溪街道",
          "id": 820,
          "longitude": 106.435309
        },
        {
          "parentName": "沙坪坝区",
          "total": 1,
          "code": "500106008",
          "children": [],
          "parentCode": "500106",
          "level": 3,
          "latitude": 29.608203,
          "name": "井口街道",
          "id": 810,
          "longitude": 106.44072
        },
        {
          "parentName": "沙坪坝区",
          "total": 1,
          "code": "500106008",
          "children": [],
          "parentCode": "500106",
          "level": 3,
          "latitude": 29.608203,
          "name": "井口街道",
          "id": 773,
          "longitude": 106.44072
        },
        {
          "parentName": "沙坪坝区",
          "total": 1,
          "code": "500106008",
          "children": [],
          "parentCode": "500106",
          "level": 3,
          "latitude": 29.608203,
          "name": "井口街道",
          "id": 774,
          "longitude": 106.44072
        },
        {
          "parentName": "沙坪坝区",
          "total": 1,
          "code": "500106008",
          "children": [],
          "parentCode": "500106",
          "level": 3,
          "latitude": 29.608203,
          "name": "井口街道",
          "id": 768,
          "longitude": 106.44072
        },
        {
          "parentName": "沙坪坝区",
          "total": 1,
          "code": "500106008",
          "children": [],
          "parentCode": "500106",
          "level": 3,
          "latitude": 29.608203,
          "name": "井口街道",
          "id": 762,
          "longitude": 106.44072
        },
        {
          "parentName": "沙坪坝区",
          "total": 1,
          "code": "500106008",
          "children": [],
          "parentCode": "500106",
          "level": 3,
          "latitude": 29.608203,
          "name": "井口街道",
          "id": 770,
          "longitude": 106.44072
        },
        {
          "parentName": "沙坪坝区",
          "total": 1,
          "code": "500106008",
          "children": [],
          "parentCode": "500106",
          "level": 3,
          "latitude": 29.608203,
          "name": "井口街道",
          "id": 796,
          "longitude": 106.44072
        },
        {
          "parentName": "沙坪坝区",
          "total": 1,
          "code": "500106008",
          "children": [],
          "parentCode": "500106",
          "level": 3,
          "latitude": 29.608203,
          "name": "井口街道",
          "id": 815,
          "longitude": 106.44072
        },
        {
          "parentName": "沙坪坝区",
          "total": 1,
          "code": "500106009",
          "children": [],
          "parentCode": "500106",
          "level": 3,
          "latitude": 29.566087,
          "name": "歌乐山街道",
          "id": 875,
          "longitude": 106.41252
        },
        {
          "parentName": "沙坪坝区",
          "total": 1,
          "code": "500106009",
          "children": [],
          "parentCode": "500106",
          "level": 3,
          "latitude": 29.566087,
          "name": "歌乐山街道",
          "id": 837,
          "longitude": 106.41252
        },
        {
          "parentName": "沙坪坝区",
          "total": 1,
          "code": "500106009",
          "children": [],
          "parentCode": "500106",
          "level": 3,
          "latitude": 29.566087,
          "name": "歌乐山街道",
          "id": 850,
          "longitude": 106.41252
        },
        {
          "parentName": "沙坪坝区",
          "total": 1,
          "code": "500106010",
          "children": [],
          "parentCode": "500106",
          "level": 3,
          "latitude": 29.521471,
          "name": "山洞街道",
          "id": 929,
          "longitude": 106.417663
        },
        {
          "parentName": "沙坪坝区",
          "total": 1,
          "code": "500106011",
          "children": [],
          "parentCode": "500106",
          "level": 3,
          "latitude": 29.50091,
          "name": "新桥街道",
          "id": 956,
          "longitude": 106.434412
        },
        {
          "parentName": "沙坪坝区",
          "total": 1,
          "code": "500106011",
          "children": [],
          "parentCode": "500106",
          "level": 3,
          "latitude": 29.50091,
          "name": "新桥街道",
          "id": 957,
          "longitude": 106.434412
        },
        {
          "parentName": "沙坪坝区",
          "total": 1,
          "code": "500106011",
          "children": [],
          "parentCode": "500106",
          "level": 3,
          "latitude": 29.50091,
          "name": "新桥街道",
          "id": 980,
          "longitude": 106.434412
        },
        {
          "parentName": "沙坪坝区",
          "total": 1,
          "code": "500106011",
          "children": [],
          "parentCode": "500106",
          "level": 3,
          "latitude": 29.50091,
          "name": "新桥街道",
          "id": 947,
          "longitude": 106.434412
        },
        {
          "parentName": "沙坪坝区",
          "total": 1,
          "code": "500106011",
          "children": [],
          "parentCode": "500106",
          "level": 3,
          "latitude": 29.50091,
          "name": "新桥街道",
          "id": 982,
          "longitude": 106.434412
        },
        {
          "parentName": "沙坪坝区",
          "total": 1,
          "code": "500106011",
          "children": [],
          "parentCode": "500106",
          "level": 3,
          "latitude": 29.50091,
          "name": "新桥街道",
          "id": 924,
          "longitude": 106.434412
        },
        {
          "parentName": "沙坪坝区",
          "total": 1,
          "code": "500106011",
          "children": [],
          "parentCode": "500106",
          "level": 3,
          "latitude": 29.50091,
          "name": "新桥街道",
          "id": 914,
          "longitude": 106.434412
        },
        {
          "parentName": "沙坪坝区",
          "total": 1,
          "code": "500106011",
          "children": [],
          "parentCode": "500106",
          "level": 3,
          "latitude": 29.50091,
          "name": "新桥街道",
          "id": 987,
          "longitude": 106.434412
        },
        {
          "parentName": "沙坪坝区",
          "total": 1,
          "code": "500106011",
          "children": [],
          "parentCode": "500106",
          "level": 3,
          "latitude": 29.50091,
          "name": "新桥街道",
          "id": 960,
          "longitude": 106.434412
        },
        {
          "parentName": "沙坪坝区",
          "total": 1,
          "code": "500106012",
          "children": [],
          "parentCode": "500106",
          "level": 3,
          "latitude": 29.542334,
          "name": "天星桥街道",
          "id": 916,
          "longitude": 106.448768
        },
        {
          "parentName": "沙坪坝区",
          "total": 1,
          "code": "500106012",
          "children": [],
          "parentCode": "500106",
          "level": 3,
          "latitude": 29.542334,
          "name": "天星桥街道",
          "id": 891,
          "longitude": 106.448768
        },
        {
          "parentName": "沙坪坝区",
          "total": 1,
          "code": "500106012",
          "children": [],
          "parentCode": "500106",
          "level": 3,
          "latitude": 29.542334,
          "name": "天星桥街道",
          "id": 917,
          "longitude": 106.448768
        },
        {
          "parentName": "沙坪坝区",
          "total": 1,
          "code": "500106012",
          "children": [],
          "parentCode": "500106",
          "level": 3,
          "latitude": 29.542334,
          "name": "天星桥街道",
          "id": 919,
          "longitude": 106.448768
        },
        {
          "parentName": "沙坪坝区",
          "total": 1,
          "code": "500106012",
          "children": [],
          "parentCode": "500106",
          "level": 3,
          "latitude": 29.542334,
          "name": "天星桥街道",
          "id": 898,
          "longitude": 106.448768
        },
        {
          "parentName": "沙坪坝区",
          "total": 1,
          "code": "500106013",
          "children": [],
          "parentCode": "500106",
          "level": 3,
          "latitude": 29.557722,
          "name": "土湾街道",
          "id": 881,
          "longitude": 106.473339
        },
        {
          "parentName": "沙坪坝区",
          "total": 1,
          "code": "500106014",
          "children": [],
          "parentCode": "500106",
          "level": 3,
          "latitude": 29.506276,
          "name": "覃家岗街道",
          "id": 853,
          "longitude": 106.439519
        },
        {
          "parentName": "沙坪坝区",
          "total": 1,
          "code": "500106014",
          "children": [],
          "parentCode": "500106",
          "level": 3,
          "latitude": 29.506276,
          "name": "覃家岗街道",
          "id": 966,
          "longitude": 106.439519
        },
        {
          "parentName": "沙坪坝区",
          "total": 1,
          "code": "500106014",
          "children": [],
          "parentCode": "500106",
          "level": 3,
          "latitude": 29.506276,
          "name": "覃家岗街道",
          "id": 873,
          "longitude": 106.439519
        },
        {
          "parentName": "沙坪坝区",
          "total": 1,
          "code": "500106014",
          "children": [],
          "parentCode": "500106",
          "level": 3,
          "latitude": 29.506276,
          "name": "覃家岗街道",
          "id": 851,
          "longitude": 106.439519
        },
        {
          "parentName": "沙坪坝区",
          "total": 1,
          "code": "500106014",
          "children": [],
          "parentCode": "500106",
          "level": 3,
          "latitude": 29.506276,
          "name": "覃家岗街道",
          "id": 854,
          "longitude": 106.439519
        },
        {
          "parentName": "沙坪坝区",
          "total": 1,
          "code": "500106014",
          "children": [],
          "parentCode": "500106",
          "level": 3,
          "latitude": 29.506276,
          "name": "覃家岗街道",
          "id": 855,
          "longitude": 106.439519
        },
        {
          "parentName": "沙坪坝区",
          "total": 1,
          "code": "500106014",
          "children": [],
          "parentCode": "500106",
          "level": 3,
          "latitude": 29.506276,
          "name": "覃家岗街道",
          "id": 884,
          "longitude": 106.439519
        },
        {
          "parentName": "沙坪坝区",
          "total": 1,
          "code": "500106015",
          "children": [],
          "parentCode": "500106",
          "level": 3,
          "latitude": 29.607023,
          "name": "陈家桥街道",
          "id": 769,
          "longitude": 106.32869
        },
        {
          "parentName": "沙坪坝区",
          "total": 1,
          "code": "500106016",
          "children": [],
          "parentCode": "500106",
          "level": 3,
          "latitude": 29.606176,
          "name": "虎溪街道",
          "id": 779,
          "longitude": 106.293638
        },
        {
          "parentName": "沙坪坝区",
          "total": 1,
          "code": "500106017",
          "children": [],
          "parentCode": "500106",
          "level": 3,
          "latitude": 29.580692,
          "name": "西永街道",
          "id": 781,
          "longitude": 106.378529
        },
        {
          "parentName": "沙坪坝区",
          "total": 1,
          "code": "500106018",
          "children": [],
          "parentCode": "500106",
          "level": 3,
          "latitude": 29.545828,
          "name": "联芳街道",
          "id": 897,
          "longitude": 106.471111
        },
        {
          "parentName": "沙坪坝区",
          "total": 1,
          "code": "500106102",
          "children": [],
          "parentCode": "500106",
          "level": 3,
          "latitude": null,
          "name": "井口镇",
          "id": 758,
          "longitude": null
        },
        {
          "parentName": "沙坪坝区",
          "total": 1,
          "code": "500106103",
          "children": [],
          "parentCode": "500106",
          "level": 3,
          "latitude": null,
          "name": "歌乐山镇",
          "id": 791,
          "longitude": null
        },
        {
          "parentName": "沙坪坝区",
          "total": 1,
          "code": "500106104",
          "children": [],
          "parentCode": "500106",
          "level": 3,
          "latitude": 29.673455,
          "name": "青木关镇",
          "id": 722,
          "longitude": 106.304671
        },
        {
          "parentName": "沙坪坝区",
          "total": 1,
          "code": "500106105",
          "children": [],
          "parentCode": "500106",
          "level": 3,
          "latitude": 29.708571,
          "name": "凤凰镇",
          "id": 711,
          "longitude": 106.329482
        },
        {
          "parentName": "沙坪坝区",
          "total": 1,
          "code": "500106106",
          "children": [],
          "parentCode": "500106",
          "level": 3,
          "latitude": 29.706856,
          "name": "回龙坝镇",
          "id": 701,
          "longitude": 106.376455
        },
        {
          "parentName": "沙坪坝区",
          "total": 1,
          "code": "500106108",
          "children": [],
          "parentCode": "500106",
          "level": 3,
          "latitude": 29.560347,
          "name": "曾家镇",
          "id": 832,
          "longitude": 106.280937
        },
        {
          "parentName": "沙坪坝区",
          "total": 1,
          "code": "500106111",
          "children": [],
          "parentCode": "500106",
          "level": 3,
          "latitude": null,
          "name": "土主镇",
          "id": 749,
          "longitude": null
        },
        {
          "parentName": "沙坪坝区",
          "total": 1,
          "code": "500106112",
          "children": [],
          "parentCode": "500106",
          "level": 3,
          "latitude": 29.68448,
          "name": "中梁镇",
          "id": 699,
          "longitude": 106.414092
        }
      ],
      "parentCode": "500",
      "level": 2,
      "latitude": 29.547192,
      "name": "沙坪坝区",
      "id": 7,
      "longitude": 106.463439
    },
    {
      "parentName": "重庆市",
      "total": 18,
      "code": "500107",
      "children": [
        {
          "parentName": "九龙坡区",
          "total": 1,
          "code": "500107001",
          "children": [],
          "parentCode": "500107",
          "level": 3,
          "latitude": 29.506182,
          "name": "杨家坪街道",
          "id": 958,
          "longitude": 106.510278
        },
        {
          "parentName": "九龙坡区",
          "total": 1,
          "code": "500107002",
          "children": [],
          "parentCode": "500107",
          "level": 3,
          "latitude": 29.499723,
          "name": "黄桷坪街道",
          "id": 997,
          "longitude": 106.522438
        },
        {
          "parentName": "九龙坡区",
          "total": 1,
          "code": "500107003",
          "children": [],
          "parentCode": "500107",
          "level": 3,
          "latitude": 29.522605,
          "name": "谢家湾街道",
          "id": 927,
          "longitude": 106.519056
        },
        {
          "parentName": "九龙坡区",
          "total": 1,
          "code": "500107004",
          "children": [],
          "parentCode": "500107",
          "level": 3,
          "latitude": 29.507959,
          "name": "石坪桥街道",
          "id": 978,
          "longitude": 106.494248
        },
        {
          "parentName": "九龙坡区",
          "total": 1,
          "code": "500107005",
          "children": [],
          "parentCode": "500107",
          "level": 3,
          "latitude": 29.523468,
          "name": "石桥铺街道",
          "id": 955,
          "longitude": 106.495285
        },
        {
          "parentName": "九龙坡区",
          "total": 1,
          "code": "500107006",
          "children": [],
          "parentCode": "500107",
          "level": 3,
          "latitude": 29.4354,
          "name": "中梁山街道",
          "id": 1081,
          "longitude": 106.425182
        },
        {
          "parentName": "九龙坡区",
          "total": 1,
          "code": "500107007",
          "children": [],
          "parentCode": "500107",
          "level": 3,
          "latitude": 29.537013,
          "name": "渝州路街道",
          "id": 905,
          "longitude": 106.487932
        },
        {
          "parentName": "九龙坡区",
          "total": 1,
          "code": "500107100",
          "children": [],
          "parentCode": "500107",
          "level": 3,
          "latitude": 29.494507,
          "name": "九龙镇",
          "id": 964,
          "longitude": 106.535086
        },
        {
          "parentName": "九龙坡区",
          "total": 1,
          "code": "500107102",
          "children": [],
          "parentCode": "500107",
          "level": 3,
          "latitude": 29.438353,
          "name": "华岩镇",
          "id": 1005,
          "longitude": 106.448943
        },
        {
          "parentName": "九龙坡区",
          "total": 1,
          "code": "500107103",
          "children": [],
          "parentCode": "500107",
          "level": 3,
          "latitude": 29.532153,
          "name": "含谷镇",
          "id": 883,
          "longitude": 106.368926
        },
        {
          "parentName": "九龙坡区",
          "total": 1,
          "code": "500107104",
          "children": [],
          "parentCode": "500107",
          "level": 3,
          "latitude": 29.517937,
          "name": "金凤镇",
          "id": 908,
          "longitude": 106.295822
        },
        {
          "parentName": "九龙坡区",
          "total": 1,
          "code": "500107105",
          "children": [],
          "parentCode": "500107",
          "level": 3,
          "latitude": 29.483686,
          "name": "白市驿镇",
          "id": 948,
          "longitude": 106.36323
        },
        {
          "parentName": "九龙坡区",
          "total": 1,
          "code": "500107106",
          "children": [],
          "parentCode": "500107",
          "level": 3,
          "latitude": 29.466732,
          "name": "走马镇",
          "id": 991,
          "longitude": 106.296676
        },
        {
          "parentName": "九龙坡区",
          "total": 1,
          "code": "500107107",
          "children": [],
          "parentCode": "500107",
          "level": 3,
          "latitude": 29.424739,
          "name": "石板镇",
          "id": 1066,
          "longitude": 106.369355
        },
        {
          "parentName": "九龙坡区",
          "total": 1,
          "code": "500107108",
          "children": [],
          "parentCode": "500107",
          "level": 3,
          "latitude": 29.430646,
          "name": "巴福镇",
          "id": 1064,
          "longitude": 106.311776
        },
        {
          "parentName": "九龙坡区",
          "total": 1,
          "code": "500107109",
          "children": [],
          "parentCode": "500107",
          "level": 3,
          "latitude": 29.372992,
          "name": "陶家镇",
          "id": 1126,
          "longitude": 106.359585
        },
        {
          "parentName": "九龙坡区",
          "total": 1,
          "code": "500107110",
          "children": [],
          "parentCode": "500107",
          "level": 3,
          "latitude": 29.321807,
          "name": "西彭镇",
          "id": 1146,
          "longitude": 106.310591
        },
        {
          "parentName": "九龙坡区",
          "total": 1,
          "code": "500107111",
          "children": [],
          "parentCode": "500107",
          "level": 3,
          "latitude": 29.318257,
          "name": "铜罐驿镇",
          "id": 1175,
          "longitude": 106.370356
        }
      ],
      "parentCode": "500",
      "level": 2,
      "latitude": 29.50409,
      "name": "九龙坡区",
      "id": 8,
      "longitude": 106.50646
    },
    {
      "parentName": "重庆市",
      "total": 22,
      "code": "500108",
      "children": [
        {
          "parentName": "南岸区",
          "total": 1,
          "code": "500108001",
          "children": [],
          "parentCode": "500108",
          "level": 3,
          "latitude": 29.535385,
          "name": "铜元局街道",
          "id": 920,
          "longitude": 106.543395
        },
        {
          "parentName": "南岸区",
          "total": 1,
          "code": "500108002",
          "children": [],
          "parentCode": "500108",
          "level": 3,
          "latitude": 29.517764,
          "name": "花园路街道",
          "id": 933,
          "longitude": 106.545449
        },
        {
          "parentName": "南岸区",
          "total": 1,
          "code": "500108003",
          "children": [],
          "parentCode": "500108",
          "level": 3,
          "latitude": 29.535231,
          "name": "南坪街道",
          "id": 913,
          "longitude": 106.566448
        },
        {
          "parentName": "南岸区",
          "total": 1,
          "code": "500108004",
          "children": [],
          "parentCode": "500108",
          "level": 3,
          "latitude": 29.490694,
          "name": "海棠溪街道",
          "id": 900,
          "longitude": 106.570415
        },
        {
          "parentName": "南岸区",
          "total": 1,
          "code": "500108004",
          "children": [],
          "parentCode": "500108",
          "level": 3,
          "latitude": 29.490694,
          "name": "海棠溪街道",
          "id": 996,
          "longitude": 106.570415
        },
        {
          "parentName": "南岸区",
          "total": 1,
          "code": "500108005",
          "children": [],
          "parentCode": "500108",
          "level": 3,
          "latitude": 29.556368,
          "name": "龙门浩街道",
          "id": 878,
          "longitude": 106.591601
        },
        {
          "parentName": "南岸区",
          "total": 1,
          "code": "500108006",
          "children": [],
          "parentCode": "500108",
          "level": 3,
          "latitude": 29.591593,
          "name": "弹子石街道",
          "id": 818,
          "longitude": 106.584382
        },
        {
          "parentName": "南岸区",
          "total": 1,
          "code": "500108007",
          "children": [],
          "parentCode": "500108",
          "level": 3,
          "latitude": 29.536282,
          "name": "南山街道",
          "id": 838,
          "longitude": 106.613802
        },
        {
          "parentName": "南岸区",
          "total": 1,
          "code": "500108008",
          "children": [],
          "parentCode": "500108",
          "level": 3,
          "latitude": 29.5079,
          "name": "天文街道",
          "id": 953,
          "longitude": 106.641156
        },
        {
          "parentName": "南岸区",
          "total": 1,
          "code": "500108101",
          "children": [],
          "parentCode": "500108",
          "level": 3,
          "latitude": 29.486489,
          "name": "南坪镇",
          "id": 1021,
          "longitude": 106.566286
        },
        {
          "parentName": "南岸区",
          "total": 1,
          "code": "500108101",
          "children": [],
          "parentCode": "500108",
          "level": 3,
          "latitude": 29.486489,
          "name": "南坪镇",
          "id": 911,
          "longitude": 106.566286
        },
        {
          "parentName": "南岸区",
          "total": 1,
          "code": "500108101",
          "children": [],
          "parentCode": "500108",
          "level": 3,
          "latitude": 29.486489,
          "name": "南坪镇",
          "id": 952,
          "longitude": 106.566286
        },
        {
          "parentName": "南岸区",
          "total": 1,
          "code": "500108101",
          "children": [],
          "parentCode": "500108",
          "level": 3,
          "latitude": 29.486489,
          "name": "南坪镇",
          "id": 930,
          "longitude": 106.566286
        },
        {
          "parentName": "南岸区",
          "total": 1,
          "code": "500108101",
          "children": [],
          "parentCode": "500108",
          "level": 3,
          "latitude": 29.486489,
          "name": "南坪镇",
          "id": 921,
          "longitude": 106.566286
        },
        {
          "parentName": "南岸区",
          "total": 1,
          "code": "500108102",
          "children": [],
          "parentCode": "500108",
          "level": 3,
          "latitude": 29.553391,
          "name": "涂山镇",
          "id": 901,
          "longitude": 106.593924
        },
        {
          "parentName": "南岸区",
          "total": 1,
          "code": "500108102",
          "children": [],
          "parentCode": "500108",
          "level": 3,
          "latitude": 29.553391,
          "name": "涂山镇",
          "id": 802,
          "longitude": 106.593924
        },
        {
          "parentName": "南岸区",
          "total": 1,
          "code": "500108103",
          "children": [],
          "parentCode": "500108",
          "level": 3,
          "latitude": 29.594519,
          "name": "鸡冠石镇",
          "id": 798,
          "longitude": 106.618121
        },
        {
          "parentName": "南岸区",
          "total": 1,
          "code": "500108105",
          "children": [],
          "parentCode": "500108",
          "level": 3,
          "latitude": 29.526492,
          "name": "峡口镇",
          "id": 844,
          "longitude": 106.66849
        },
        {
          "parentName": "南岸区",
          "total": 1,
          "code": "500108105",
          "children": [],
          "parentCode": "500108",
          "level": 3,
          "latitude": 29.526492,
          "name": "峡口镇",
          "id": 946,
          "longitude": 106.66849
        },
        {
          "parentName": "南岸区",
          "total": 1,
          "code": "500108106",
          "children": [],
          "parentCode": "500108",
          "level": 3,
          "latitude": 29.503273,
          "name": "长生桥镇",
          "id": 915,
          "longitude": 106.647493
        },
        {
          "parentName": "南岸区",
          "total": 1,
          "code": "500108107",
          "children": [],
          "parentCode": "500108",
          "level": 3,
          "latitude": 29.52378,
          "name": "迎龙镇",
          "id": 886,
          "longitude": 106.719815
        },
        {
          "parentName": "南岸区",
          "total": 1,
          "code": "500108108",
          "children": [],
          "parentCode": "500108",
          "level": 3,
          "latitude": 29.580824,
          "name": "广阳镇",
          "id": 812,
          "longitude": 106.758021
        }
      ],
      "parentCode": "500",
      "level": 2,
      "latitude": 29.50174,
      "name": "南岸区",
      "id": 9,
      "longitude": 106.63321
    },
    {
      "parentName": "重庆市",
      "total": 17,
      "code": "500109",
      "children": [
        {
          "parentName": "北碚区",
          "total": 1,
          "code": "500109001",
          "children": [],
          "parentCode": "500109",
          "level": 3,
          "latitude": 29.821289,
          "name": "天生街道",
          "id": 654,
          "longitude": 106.424075
        },
        {
          "parentName": "北碚区",
          "total": 1,
          "code": "500109002",
          "children": [],
          "parentCode": "500109",
          "level": 3,
          "latitude": 29.831668,
          "name": "朝阳街道",
          "id": 653,
          "longitude": 106.438492
        },
        {
          "parentName": "北碚区",
          "total": 1,
          "code": "500109003",
          "children": [],
          "parentCode": "500109",
          "level": 3,
          "latitude": 29.826414,
          "name": "北温泉街道",
          "id": 631,
          "longitude": 106.401736
        },
        {
          "parentName": "北碚区",
          "total": 1,
          "code": "500109004",
          "children": [],
          "parentCode": "500109",
          "level": 3,
          "latitude": 29.870277,
          "name": "东阳街道",
          "id": 605,
          "longitude": 106.443637
        },
        {
          "parentName": "北碚区",
          "total": 1,
          "code": "500109005",
          "children": [],
          "parentCode": "500109",
          "level": 3,
          "latitude": 29.821062,
          "name": "龙凤桥街道",
          "id": 661,
          "longitude": 106.442132
        },
        {
          "parentName": "北碚区",
          "total": 1,
          "code": "500109101",
          "children": [],
          "parentCode": "500109",
          "level": 3,
          "latitude": 29.768514,
          "name": "歇马镇",
          "id": 664,
          "longitude": 106.363178
        },
        {
          "parentName": "北碚区",
          "total": 1,
          "code": "500109102",
          "children": [],
          "parentCode": "500109",
          "level": 3,
          "latitude": 29.870192,
          "name": "澄江镇",
          "id": 604,
          "longitude": 106.362483
        },
        {
          "parentName": "北碚区",
          "total": 1,
          "code": "500109103",
          "children": [],
          "parentCode": "500109",
          "level": 3,
          "latitude": null,
          "name": "蔡家岗镇",
          "id": 691,
          "longitude": null
        },
        {
          "parentName": "北碚区",
          "total": 1,
          "code": "500109104",
          "children": [],
          "parentCode": "500109",
          "level": 3,
          "latitude": 29.694511,
          "name": "童家溪镇",
          "id": 715,
          "longitude": 106.441465
        },
        {
          "parentName": "北碚区",
          "total": 1,
          "code": "500109105",
          "children": [],
          "parentCode": "500109",
          "level": 3,
          "latitude": 29.883235,
          "name": "天府镇",
          "id": 598,
          "longitude": 106.501507
        },
        {
          "parentName": "北碚区",
          "total": 1,
          "code": "500109108",
          "children": [],
          "parentCode": "500109",
          "level": 3,
          "latitude": 29.770234,
          "name": "施家梁镇",
          "id": 678,
          "longitude": 106.479702
        },
        {
          "parentName": "北碚区",
          "total": 1,
          "code": "500109109",
          "children": [],
          "parentCode": "500109",
          "level": 3,
          "latitude": null,
          "name": "水土镇",
          "id": 639,
          "longitude": null
        },
        {
          "parentName": "北碚区",
          "total": 1,
          "code": "500109110",
          "children": [],
          "parentCode": "500109",
          "level": 3,
          "latitude": 29.905488,
          "name": "静观镇",
          "id": 583,
          "longitude": 106.565495
        },
        {
          "parentName": "北碚区",
          "total": 1,
          "code": "500109111",
          "children": [],
          "parentCode": "500109",
          "level": 3,
          "latitude": 29.979699,
          "name": "柳荫镇",
          "id": 554,
          "longitude": 106.607391
        },
        {
          "parentName": "北碚区",
          "total": 1,
          "code": "500109112",
          "children": [],
          "parentCode": "500109",
          "level": 3,
          "latitude": 29.80682,
          "name": "复兴镇",
          "id": 626,
          "longitude": 106.569768
        },
        {
          "parentName": "北碚区",
          "total": 1,
          "code": "500109113",
          "children": [],
          "parentCode": "500109",
          "level": 3,
          "latitude": 29.902924,
          "name": "三圣镇",
          "id": 597,
          "longitude": 106.634645
        },
        {
          "parentName": "北碚区",
          "total": 1,
          "code": "500109116",
          "children": [],
          "parentCode": "500109",
          "level": 3,
          "latitude": 30.031686,
          "name": "金刀峡镇",
          "id": 528,
          "longitude": 106.639829
        }
      ],
      "parentCode": "500",
      "level": 2,
      "latitude": 29.811138,
      "name": "北碚区",
      "id": 10,
      "longitude": 106.402277
    },
    {
      "parentName": "重庆市",
      "total": 45,
      "code": "500110",
      "children": [
        {
          "parentName": "綦江区",
          "total": 1,
          "code": "500110001",
          "children": [],
          "parentCode": "500110",
          "level": 3,
          "latitude": 28.987194,
          "name": "古南街道",
          "id": 1370,
          "longitude": 106.621413
        },
        {
          "parentName": "綦江区",
          "total": 1,
          "code": "500110002",
          "children": [],
          "parentCode": "500110",
          "level": 3,
          "latitude": 29.052907,
          "name": "文龙街道",
          "id": 1321,
          "longitude": 106.650834
        },
        {
          "parentName": "綦江区",
          "total": 1,
          "code": "500110003",
          "children": [],
          "parentCode": "500110",
          "level": 3,
          "latitude": 28.936155,
          "name": "三江街道",
          "id": 1383,
          "longitude": 106.682083
        },
        {
          "parentName": "綦江区",
          "total": 1,
          "code": "500110004",
          "children": [],
          "parentCode": "500110",
          "level": 3,
          "latitude": 28.963655,
          "name": "万盛街道",
          "id": 1381,
          "longitude": 106.909181
        },
        {
          "parentName": "綦江区",
          "total": 1,
          "code": "500110004",
          "children": [],
          "parentCode": "500110",
          "level": 3,
          "latitude": 28.963655,
          "name": "万盛街道",
          "id": 1385,
          "longitude": 106.909181
        },
        {
          "parentName": "綦江区",
          "total": 1,
          "code": "500110004",
          "children": [],
          "parentCode": "500110",
          "level": 3,
          "latitude": 28.963655,
          "name": "万盛街道",
          "id": 1392,
          "longitude": 106.909181
        },
        {
          "parentName": "綦江区",
          "total": 1,
          "code": "500110004",
          "children": [],
          "parentCode": "500110",
          "level": 3,
          "latitude": 28.963655,
          "name": "万盛街道",
          "id": 1384,
          "longitude": 106.909181
        },
        {
          "parentName": "綦江区",
          "total": 1,
          "code": "500110004",
          "children": [],
          "parentCode": "500110",
          "level": 3,
          "latitude": 28.963655,
          "name": "万盛街道",
          "id": 1388,
          "longitude": 106.909181
        },
        {
          "parentName": "綦江区",
          "total": 1,
          "code": "500110004",
          "children": [],
          "parentCode": "500110",
          "level": 3,
          "latitude": 28.963655,
          "name": "万盛街道",
          "id": 1401,
          "longitude": 106.909181
        },
        {
          "parentName": "綦江区",
          "total": 1,
          "code": "500110004",
          "children": [],
          "parentCode": "500110",
          "level": 3,
          "latitude": 28.963655,
          "name": "万盛街道",
          "id": 1390,
          "longitude": 106.909181
        },
        {
          "parentName": "綦江区",
          "total": 1,
          "code": "500110005",
          "children": [],
          "parentCode": "500110",
          "level": 3,
          "latitude": 28.92288,
          "name": "东林街道",
          "id": 1410,
          "longitude": 106.90868
        },
        {
          "parentName": "綦江区",
          "total": 1,
          "code": "500110005",
          "children": [],
          "parentCode": "500110",
          "level": 3,
          "latitude": 28.92288,
          "name": "东林街道",
          "id": 1433,
          "longitude": 106.90868
        },
        {
          "parentName": "綦江区",
          "total": 1,
          "code": "500110005",
          "children": [],
          "parentCode": "500110",
          "level": 3,
          "latitude": 28.92288,
          "name": "东林街道",
          "id": 1422,
          "longitude": 106.90868
        },
        {
          "parentName": "綦江区",
          "total": 1,
          "code": "500110005",
          "children": [],
          "parentCode": "500110",
          "level": 3,
          "latitude": 28.92288,
          "name": "东林街道",
          "id": 1407,
          "longitude": 106.90868
        },
        {
          "parentName": "綦江区",
          "total": 1,
          "code": "500110005",
          "children": [],
          "parentCode": "500110",
          "level": 3,
          "latitude": 28.92288,
          "name": "东林街道",
          "id": 1414,
          "longitude": 106.90868
        },
        {
          "parentName": "綦江区",
          "total": 1,
          "code": "500110005",
          "children": [],
          "parentCode": "500110",
          "level": 3,
          "latitude": 28.92288,
          "name": "东林街道",
          "id": 1413,
          "longitude": 106.90868
        },
        {
          "parentName": "綦江区",
          "total": 1,
          "code": "500110005",
          "children": [],
          "parentCode": "500110",
          "level": 3,
          "latitude": 28.92288,
          "name": "东林街道",
          "id": 1427,
          "longitude": 106.90868
        },
        {
          "parentName": "綦江区",
          "total": 1,
          "code": "500110100",
          "children": [],
          "parentCode": "500110",
          "level": 3,
          "latitude": 28.956967,
          "name": "万东镇",
          "id": 1378,
          "longitude": 106.924575
        },
        {
          "parentName": "綦江区",
          "total": 1,
          "code": "500110101",
          "children": [],
          "parentCode": "500110",
          "level": 3,
          "latitude": 28.934337,
          "name": "南桐镇",
          "id": 1376,
          "longitude": 106.872278
        },
        {
          "parentName": "綦江区",
          "total": 1,
          "code": "500110102",
          "children": [],
          "parentCode": "500110",
          "level": 3,
          "latitude": 28.847095,
          "name": "青年镇",
          "id": 1440,
          "longitude": 106.853211
        },
        {
          "parentName": "綦江区",
          "total": 1,
          "code": "500110103",
          "children": [],
          "parentCode": "500110",
          "level": 3,
          "latitude": 28.795971,
          "name": "关坝镇",
          "id": 1455,
          "longitude": 106.824925
        },
        {
          "parentName": "綦江区",
          "total": 1,
          "code": "500110103",
          "children": [],
          "parentCode": "500110",
          "level": 3,
          "latitude": 28.795971,
          "name": "关坝镇",
          "id": 1444,
          "longitude": 106.824925
        },
        {
          "parentName": "綦江区",
          "total": 1,
          "code": "500110104",
          "children": [],
          "parentCode": "500110",
          "level": 3,
          "latitude": 29.031353,
          "name": "丛林镇",
          "id": 1366,
          "longitude": 106.937383
        },
        {
          "parentName": "綦江区",
          "total": 1,
          "code": "500110104",
          "children": [],
          "parentCode": "500110",
          "level": 3,
          "latitude": 29.031353,
          "name": "丛林镇",
          "id": 1348,
          "longitude": 106.937383
        },
        {
          "parentName": "綦江区",
          "total": 1,
          "code": "500110105",
          "children": [],
          "parentCode": "500110",
          "level": 3,
          "latitude": 28.841829,
          "name": "石林镇",
          "id": 1439,
          "longitude": 106.935175
        },
        {
          "parentName": "綦江区",
          "total": 1,
          "code": "500110106",
          "children": [],
          "parentCode": "500110",
          "level": 3,
          "latitude": 29.051866,
          "name": "金桥镇",
          "id": 1333,
          "longitude": 106.887176
        },
        {
          "parentName": "綦江区",
          "total": 1,
          "code": "500110107",
          "children": [],
          "parentCode": "500110",
          "level": 3,
          "latitude": 28.914424,
          "name": "黑山镇",
          "id": 1389,
          "longitude": 106.993196
        },
        {
          "parentName": "綦江区",
          "total": 1,
          "code": "500110108",
          "children": [],
          "parentCode": "500110",
          "level": 3,
          "latitude": 28.937927,
          "name": "石角镇",
          "id": 1373,
          "longitude": 106.77844
        },
        {
          "parentName": "綦江区",
          "total": 1,
          "code": "500110109",
          "children": [],
          "parentCode": "500110",
          "level": 3,
          "latitude": 28.753978,
          "name": "东溪镇",
          "id": 1458,
          "longitude": 106.646075
        },
        {
          "parentName": "綦江区",
          "total": 1,
          "code": "500110110",
          "children": [],
          "parentCode": "500110",
          "level": 3,
          "latitude": 28.71264,
          "name": "赶水镇",
          "id": 1465,
          "longitude": 106.760888
        },
        {
          "parentName": "綦江区",
          "total": 1,
          "code": "500110111",
          "children": [],
          "parentCode": "500110",
          "level": 3,
          "latitude": 28.578099,
          "name": "打通镇",
          "id": 1484,
          "longitude": 106.639434
        },
        {
          "parentName": "綦江区",
          "total": 1,
          "code": "500110112",
          "children": [],
          "parentCode": "500110",
          "level": 3,
          "latitude": 28.539481,
          "name": "石壕镇",
          "id": 1489,
          "longitude": 106.703332
        },
        {
          "parentName": "綦江区",
          "total": 1,
          "code": "500110113",
          "children": [],
          "parentCode": "500110",
          "level": 3,
          "latitude": 29.034238,
          "name": "永新镇",
          "id": 1344,
          "longitude": 106.555161
        },
        {
          "parentName": "綦江区",
          "total": 1,
          "code": "500110113",
          "children": [],
          "parentCode": "500110",
          "level": 3,
          "latitude": 29.034238,
          "name": "永新镇",
          "id": 1368,
          "longitude": 106.555161
        },
        {
          "parentName": "綦江区",
          "total": 1,
          "code": "500110114",
          "children": [],
          "parentCode": "500110",
          "level": 3,
          "latitude": 29.087722,
          "name": "三角镇",
          "id": 1292,
          "longitude": 106.746646
        },
        {
          "parentName": "綦江区",
          "total": 1,
          "code": "500110115",
          "children": [],
          "parentCode": "500110",
          "level": 3,
          "latitude": 29.113622,
          "name": "隆盛镇",
          "id": 1289,
          "longitude": 106.828945
        },
        {
          "parentName": "綦江区",
          "total": 1,
          "code": "500110116",
          "children": [],
          "parentCode": "500110",
          "level": 3,
          "latitude": 28.845988,
          "name": "郭扶镇",
          "id": 1426,
          "longitude": 106.569762
        },
        {
          "parentName": "綦江区",
          "total": 1,
          "code": "500110117",
          "children": [],
          "parentCode": "500110",
          "level": 3,
          "latitude": 28.866732,
          "name": "篆塘镇",
          "id": 1429,
          "longitude": 106.672566
        },
        {
          "parentName": "綦江区",
          "total": 1,
          "code": "500110118",
          "children": [],
          "parentCode": "500110",
          "level": 3,
          "latitude": 28.722694,
          "name": "丁山镇",
          "id": 1472,
          "longitude": 106.591467
        },
        {
          "parentName": "綦江区",
          "total": 1,
          "code": "500110119",
          "children": [],
          "parentCode": "500110",
          "level": 3,
          "latitude": 28.644062,
          "name": "安稳镇",
          "id": 1479,
          "longitude": 106.778292
        },
        {
          "parentName": "綦江区",
          "total": 1,
          "code": "500110120",
          "children": [],
          "parentCode": "500110",
          "level": 3,
          "latitude": 28.825387,
          "name": "扶欢镇",
          "id": 1443,
          "longitude": 106.749142
        },
        {
          "parentName": "綦江区",
          "total": 1,
          "code": "500110121",
          "children": [],
          "parentCode": "500110",
          "level": 3,
          "latitude": 29.013501,
          "name": "永城镇",
          "id": 1363,
          "longitude": 106.826956
        },
        {
          "parentName": "綦江区",
          "total": 1,
          "code": "500110122",
          "children": [],
          "parentCode": "500110",
          "level": 3,
          "latitude": 29.12056,
          "name": "新盛镇",
          "id": 1294,
          "longitude": 106.633843
        },
        {
          "parentName": "綦江区",
          "total": 1,
          "code": "500110123",
          "children": [],
          "parentCode": "500110",
          "level": 3,
          "latitude": 28.893193,
          "name": "中峰镇",
          "id": 1405,
          "longitude": 106.455634
        },
        {
          "parentName": "綦江区",
          "total": 1,
          "code": "500110124",
          "children": [],
          "parentCode": "500110",
          "level": 3,
          "latitude": 29.1336,
          "name": "横山镇",
          "id": 1284,
          "longitude": 106.696508
        }
      ],
      "parentCode": "500",
      "level": 2,
      "latitude": 29.03375,
      "name": "綦江区",
      "id": 11,
      "longitude": 106.65782
    },
    {
      "parentName": "重庆市",
      "total": 28,
      "code": "500111",
      "children": [
        {
          "parentName": "大足区",
          "total": 1,
          "code": "500111001",
          "children": [],
          "parentCode": "500111",
          "level": 3,
          "latitude": 29.69911,
          "name": "龙岗街道",
          "id": 713,
          "longitude": 105.67712
        },
        {
          "parentName": "大足区",
          "total": 1,
          "code": "500111002",
          "children": [],
          "parentCode": "500111",
          "level": 3,
          "latitude": 29.68767,
          "name": "棠香街道",
          "id": 704,
          "longitude": 105.727931
        },
        {
          "parentName": "大足区",
          "total": 1,
          "code": "500111003",
          "children": [],
          "parentCode": "500111",
          "level": 3,
          "latitude": 29.490046,
          "name": "龙滩子街道",
          "id": 970,
          "longitude": 105.795257
        },
        {
          "parentName": "大足区",
          "total": 1,
          "code": "500111100",
          "children": [],
          "parentCode": "500111",
          "level": 3,
          "latitude": 29.581944,
          "name": "龙水镇",
          "id": 775,
          "longitude": 105.752306
        },
        {
          "parentName": "大足区",
          "total": 1,
          "code": "500111101",
          "children": [],
          "parentCode": "500111",
          "level": 3,
          "latitude": 29.683546,
          "name": "智凤镇",
          "id": 712,
          "longitude": 105.788848
        },
        {
          "parentName": "大足区",
          "total": 1,
          "code": "500111102",
          "children": [],
          "parentCode": "500111",
          "level": 3,
          "latitude": 29.761248,
          "name": "宝顶镇",
          "id": 667,
          "longitude": 105.77319
        },
        {
          "parentName": "大足区",
          "total": 1,
          "code": "500111103",
          "children": [],
          "parentCode": "500111",
          "level": 3,
          "latitude": 29.777993,
          "name": "中敖镇",
          "id": 647,
          "longitude": 105.650799
        },
        {
          "parentName": "大足区",
          "total": 1,
          "code": "500111104",
          "children": [],
          "parentCode": "500111",
          "level": 3,
          "latitude": 29.635865,
          "name": "三驱镇",
          "id": 733,
          "longitude": 105.614721
        },
        {
          "parentName": "大足区",
          "total": 1,
          "code": "500111105",
          "children": [],
          "parentCode": "500111",
          "level": 3,
          "latitude": 29.62857,
          "name": "宝兴镇",
          "id": 741,
          "longitude": 105.677954
        },
        {
          "parentName": "大足区",
          "total": 1,
          "code": "500111106",
          "children": [],
          "parentCode": "500111",
          "level": 3,
          "latitude": 29.558688,
          "name": "玉龙镇",
          "id": 836,
          "longitude": 105.828369
        },
        {
          "parentName": "大足区",
          "total": 1,
          "code": "500111107",
          "children": [],
          "parentCode": "500111",
          "level": 3,
          "latitude": 29.624688,
          "name": "石马镇",
          "id": 760,
          "longitude": 105.831621
        },
        {
          "parentName": "大足区",
          "total": 1,
          "code": "500111108",
          "children": [],
          "parentCode": "500111",
          "level": 3,
          "latitude": 29.609721,
          "name": "拾万镇",
          "id": 767,
          "longitude": 105.895698
        },
        {
          "parentName": "大足区",
          "total": 1,
          "code": "500111109",
          "children": [],
          "parentCode": "500111",
          "level": 3,
          "latitude": 29.728849,
          "name": "回龙镇",
          "id": 689,
          "longitude": 105.861661
        },
        {
          "parentName": "大足区",
          "total": 1,
          "code": "500111110",
          "children": [],
          "parentCode": "500111",
          "level": 3,
          "latitude": 29.670348,
          "name": "金山镇",
          "id": 732,
          "longitude": 105.872428
        },
        {
          "parentName": "大足区",
          "total": 1,
          "code": "500111111",
          "children": [],
          "parentCode": "500111",
          "level": 3,
          "latitude": 29.688166,
          "name": "万古镇",
          "id": 718,
          "longitude": 105.939439
        },
        {
          "parentName": "大足区",
          "total": 1,
          "code": "500111112",
          "children": [],
          "parentCode": "500111",
          "level": 3,
          "latitude": 29.763181,
          "name": "国梁镇",
          "id": 673,
          "longitude": 105.915555
        },
        {
          "parentName": "大足区",
          "total": 1,
          "code": "500111113",
          "children": [],
          "parentCode": "500111",
          "level": 3,
          "latitude": 29.714098,
          "name": "雍溪镇",
          "id": 684,
          "longitude": 105.988671
        },
        {
          "parentName": "大足区",
          "total": 1,
          "code": "500111113",
          "children": [],
          "parentCode": "500111",
          "level": 3,
          "latitude": 29.714098,
          "name": "雍溪镇",
          "id": 728,
          "longitude": 105.988671
        },
        {
          "parentName": "大足区",
          "total": 1,
          "code": "500111114",
          "children": [],
          "parentCode": "500111",
          "level": 3,
          "latitude": 29.526134,
          "name": "珠溪镇",
          "id": 847,
          "longitude": 105.664438
        },
        {
          "parentName": "大足区",
          "total": 1,
          "code": "500111115",
          "children": [],
          "parentCode": "500111",
          "level": 3,
          "latitude": 29.564074,
          "name": "龙石镇",
          "id": 824,
          "longitude": 105.615516
        },
        {
          "parentName": "大足区",
          "total": 1,
          "code": "500111116",
          "children": [],
          "parentCode": "500111",
          "level": 3,
          "latitude": 29.456523,
          "name": "邮亭镇",
          "id": 926,
          "longitude": 105.743172
        },
        {
          "parentName": "大足区",
          "total": 1,
          "code": "500111117",
          "children": [],
          "parentCode": "500111",
          "level": 3,
          "latitude": 29.686227,
          "name": "铁山镇",
          "id": 723,
          "longitude": 105.529471
        },
        {
          "parentName": "大足区",
          "total": 1,
          "code": "500111118",
          "children": [],
          "parentCode": "500111",
          "level": 3,
          "latitude": 29.725083,
          "name": "高升镇",
          "id": 694,
          "longitude": 105.59469
        },
        {
          "parentName": "大足区",
          "total": 1,
          "code": "500111119",
          "children": [],
          "parentCode": "500111",
          "level": 3,
          "latitude": 29.625811,
          "name": "季家镇",
          "id": 751,
          "longitude": 105.541251
        },
        {
          "parentName": "大足区",
          "total": 1,
          "code": "500111120",
          "children": [],
          "parentCode": "500111",
          "level": 3,
          "latitude": 29.704423,
          "name": "古龙镇",
          "id": 707,
          "longitude": 106.00152
        },
        {
          "parentName": "大足区",
          "total": 1,
          "code": "500111121",
          "children": [],
          "parentCode": "500111",
          "level": 3,
          "latitude": 29.826766,
          "name": "高坪镇",
          "id": 635,
          "longitude": 105.676807
        },
        {
          "parentName": "大足区",
          "total": 1,
          "code": "500111122",
          "children": [],
          "parentCode": "500111",
          "level": 3,
          "latitude": 29.483935,
          "name": "双路镇",
          "id": 983,
          "longitude": 105.758545
        },
        {
          "parentName": "大足区",
          "total": 1,
          "code": "500111123",
          "children": [],
          "parentCode": "500111",
          "level": 3,
          "latitude": 29.515555,
          "name": "通桥镇",
          "id": 928,
          "longitude": 105.791706
        }
      ],
      "parentCode": "500",
      "level": 2,
      "latitude": 29.713391,
      "name": "大足区",
      "id": 12,
      "longitude": 105.728134
    },